{
   "version":3,
   "status":"ok",
   "response":{
      "data":[
         {
            "24":24,
            "open_24hrs":false,
            "accessible_wheelchair":true,
            "address":"15400 NE 20th St",
            "address_extended":"Ste 4",
            "alcohol":false,
            "alcohol_bar":false,
            "alcohol_beer_wine":false,
            "alcohol_byob":false,
            "attire":"casual",
            "category":"Food & Beverage > Restaurants > Pizza",
            "country":"US",
            "cuisine":"Pizza, Italian, American, Indian",
            "factual_id":"6adc8866-1647-49ff-abc7-f10afa9473f6",
            "founded":"2005",
            "groups_goodfor":false,
            "hours":"{\"1\":[[\"17:00\",\"22:00\"]],\"2\":[[\"17:00\",\"22:00\"]],\"3\":[[\"17:00\",\"22:00\"]],\"4\":[[\"17:00\",\"22:00\"]],\"5\":[[\"17:00\",\"22:00\"]],\"6\":[[\"17:00\",\"22:00\"]],\"7\":[[\"17:00\",\"22:00\"]]}",
            "kids_goodfor":true,
            "latitude":47.6279,
            "locality":"Bellevue",
            "longitude":-122.13495,
            "meal_cater":true,
            "meal_deliver":true,
            "meal_dinner":true,
            "meal_lunch":true,
            "meal_takeout":true,
            "name":"Can Am Pizza",
            "options_vegetarian":true,
            "owner":"Sheedel Kendola",
            "parking":true,
            "parking_lot":true,
            "payment_cashonly":false,
            "postcode":"98007",
            "price":1,
            "rating":3,
            "region":"WA",
            "reservations":false,
            "seating_outdoor":false,
            "status":"1",
            "tel":"(425) 747-7777",
            "website":"http://www.canampizza.com/",
            "$distance":1414.4352
         },
         {
            "24":24,
            "open_24hrs":false,
            "accessible_wheelchair":true,
            "address":"14320 NE 20th St",
            "attire":"casual",
            "category":"Food & Beverage > Restaurants",
            "country":"US",
            "cuisine":"Italian, Contemporary, Continental, Eclectic, European, International, American, Mediterranean, Pasta, Steak",
            "factual_id":"7f955e2c-474b-48c7-b412-62b29f506f7f",
            "founded":"1983",
            "groups_goodfor":true,
            "hours":"{\"2\":[[\"17:00\",\"22:00\"]],\"3\":[[\"17:00\",\"22:00\"]],\"4\":[[\"17:00\",\"22:00\"]],\"5\":[[\"17:00\",\"22:00\"]],\"6\":[[\"17:00\",\"22:00\"]]}",
            "kids_goodfor":true,
            "latitude":47.628309,
            "locality":"Bellevue",
            "longitude":-122.149445,
            "meal_deliver":false,
            "meal_dinner":true,
            "meal_lunch":true,
            "meal_takeout":true,
            "name":"Tosoni's",
            "options_vegetarian":true,
            "parking":true,
            "parking_lot":true,
            "payment_cashonly":false,
            "postcode":"98007",
            "price":3,
            "rating":3.5,
            "region":"WA",
            "reservations":true,
            "seating_outdoor":false,
            "status":"1",
            "tel":"(425) 644-1668",
            "$distance":1977.7656
         },
         {
            "24":24,
            "address":"14230 NE 20th St",
            "alcohol":true,
            "alcohol_bar":true,
            "category":"Arts, Entertainment & Nightlife > Bars",
            "country":"US",
            "cuisine":"Italian",
            "factual_id":"067b7e43-e49b-48e6-9e2d-6ced9d632eb3",
            "founded":"2009",
            "latitude":47.628137,
            "locality":"Bellevue",
            "longitude":-122.150381,
            "name":"Steve's Bar and Grill",
            "postcode":"98007",
            "rating":4.5,
            "region":"WA",
            "status":"1",
            "tel":"(425) 747-4493",
            "$distance":2043.1606
         },
         {
            "24":24,
            "open_24hrs":false,
            "accessible_wheelchair":true,
            "address":"2285 140th Ave NE",
            "attire":"casual",
            "category":"Food & Beverage > Restaurants > Italian",
            "country":"US",
            "cuisine":"Italian, Greek",
            "factual_id":"291a28ca-d4ae-4ef4-8d94-c233a464e6b0",
            "founded":"1980",
            "groups_goodfor":true,
            "hours":"{\"1\":[[\"11:00\",\"21:30\"]],\"2\":[[\"11:00\",\"21:30\"]],\"3\":[[\"11:00\",\"21:30\"]],\"4\":[[\"11:00\",\"21:30\"]],\"5\":[[\"11:00\",\"21:30\"]],\"6\":[[\"11:00\",\"21:30\"]]}",
            "kids_goodfor":true,
            "latitude":47.6306,
            "locality":"Bellevue",
            "longitude":-122.153999,
            "meal_dinner":true,
            "meal_lunch":true,
            "name":"Nick's Italian Cuisine",
            "parking":true,
            "parking_lot":true,
            "payment_cashonly":false,
            "postcode":"98005",
            "rating":3,
            "region":"WA",
            "reservations":true,
            "seating_outdoor":false,
            "smoking":true,
            "status":"1",
            "tel":"(425) 747-1333",
            "$distance":2105.4111
         },
         {
            "24":24,
            "accessible_wheelchair":true,
            "address":"15600 NE 8th St",
            "attire":"casual",
            "category":"Food & Beverage > Restaurants > Pizza",
            "country":"US",
            "cuisine":"Pizza, Italian, Sandwiches, Subs",
            "factual_id":"2502a24e-cbd8-49bf-abf1-a89d22c3e2b4",
            "kids_goodfor":true,
            "latitude":47.617504,
            "locality":"Bellevue",
            "longitude":-122.132128,
            "meal_cater":true,
            "meal_deliver":true,
            "meal_dinner":true,
            "meal_lunch":true,
            "meal_takeout":true,
            "name":"Pizza Time",
            "options_lowfat":true,
            "options_vegetarian":true,
            "parking":true,
            "payment_cashonly":false,
            "postcode":"98008",
            "price":2,
            "rating":4,
            "region":"WA",
            "reservations":false,
            "seating_outdoor":false,
            "smoking":false,
            "status":"1",
            "tel":"(425) 746-4911",
            "website":"http://www.padrinospizzapasta.com/",
            "$distance":2521.3567
         },
         {
            "24":24,
            "open_24hrs":false,
            "accessible_wheelchair":true,
            "address":"15600 NE 8th St",
            "alcohol":false,
            "alcohol_bar":false,
            "alcohol_beer_wine":false,
            "alcohol_byob":false,
            "attire":"casual",
            "category":"Food & Beverage > Restaurants > Italian",
            "country":"US",
            "cuisine":"Italian",
            "factual_id":"2f7e0a5a-600a-4694-aa61-f1f671ff00ab",
            "groups_goodfor":true,
            "hours":"{\"1\":[[\"11:00\",\"21:00\"]],\"2\":[[\"11:00\",\"21:00\"]],\"3\":[[\"11:00\",\"21:00\"]],\"4\":[[\"11:00\",\"21:00\"]],\"5\":[[\"11:00\",\"22:00\"]],\"6\":[[\"11:00\",\"22:00\"]],\"7\":[[\"11:00\",\"18:00\"]]}",
            "kids_goodfor":true,
            "latitude":47.617001,
            "locality":"Bellevue",
            "longitude":-122.130586,
            "meal_deliver":false,
            "meal_lunch":true,
            "name":"Ziti Pasta Italiano",
            "payment_cashonly":false,
            "postcode":"98008",
            "price":1,
            "rating":3,
            "region":"WA",
            "reservations":false,
            "seating_outdoor":false,
            "status":"1",
            "tel":"(425) 562-0210",
            "$distance":2571.608
         },
         {
            "24":24,
            "open_24hrs":false,
            "accessible_wheelchair":true,
            "address":"15600 NE 8th St",
            "alcohol":true,
            "alcohol_bar":true,
            "attire":"casual",
            "category":"Food & Beverage > Restaurants",
            "country":"US",
            "cuisine":"Italian",
            "email":"firenze@gte.net",
            "factual_id":"8c8bd0b0-bab3-4ef6-ae18-69f4c9c9dcfb",
            "founded":"1989",
            "groups_goodfor":true,
            "hours":"{\"1\":[[\"11:30\",\"14:00\"],[\"17:00\",\"22:30\"]],\"2\":[[\"11:30\",\"14:00\"],[\"17:00\",\"22:30\"]],\"3\":[[\"11:30\",\"14:00\"],[\"17:00\",\"22:30\"]],\"4\":[[\"11:30\",\"14:00\"],[\"17:00\",\"22:30\"]],\"5\":[[\"11:30\",\"14:00\"],[\"17:00\",\"22:30\"]],\"6\":[[\"17:00\",\"22:30\"]],\"7\":[[\"17:00\",\"22:30\"]]}",
            "kids_goodfor":false,
            "latitude":47.61698,
            "locality":"Bellevue",
            "longitude":-122.13242,
            "meal_cater":true,
            "meal_deliver":false,
            "meal_dinner":true,
            "meal_lunch":true,
            "meal_takeout":true,
            "name":"Firenze Ristorante Italiano",
            "options_glutenfree":true,
            "options_organic":true,
            "owner":"Salvatore Lambo",
            "parking":true,
            "parking_lot":true,
            "payment_cashonly":false,
            "postcode":"98008",
            "price":3,
            "rating":3.5,
            "region":"WA",
            "reservations":true,
            "room_private":true,
            "seating_outdoor":true,
            "status":"1",
            "tel":"(425) 957-1077",
            "$distance":2581.105
         },
         {
            "24":24,
            "open_24hrs":false,
            "accessible_wheelchair":true,
            "address":"15600 NE 8th St",
            "alcohol":true,
            "alcohol_beer_wine":true,
            "attire":"casual",
            "category":"Food & Beverage > Restaurants > Pizza",
            "country":"US",
            "cuisine":"Italian, Pizza",
            "factual_id":"1de2a5a8-5205-40bd-bbfc-091e29af2516",
            "founded":"2005",
            "groups_goodfor":true,
            "hours":"{\"1\":[[\"11:00\",\"22:00\"]],\"2\":[[\"11:00\",\"22:00\"]],\"3\":[[\"11:00\",\"22:00\"]],\"4\":[[\"11:00\",\"22:00\"]],\"5\":[[\"11:00\",\"23:00\"]],\"6\":[[\"12:00\",\"23:00\"]],\"7\":[[\"12:00\",\"22:00\"]]}",
            "kids_goodfor":true,
            "latitude":47.61698,
            "locality":"Bellevue",
            "longitude":-122.13242,
            "meal_deliver":false,
            "meal_dinner":true,
            "meal_lunch":true,
            "meal_takeout":true,
            "name":"Pizzeria Guido",
            "parking":true,
            "parking_lot":true,
            "payment_cashonly":false,
            "postcode":"98008",
            "price":2,
            "rating":3.5,
            "region":"WA",
            "reservations":true,
            "seating_outdoor":true,
            "status":"1",
            "tel":"(425) 614-0007",
            "website":"http://www.pizzeriaguido.com",
            "wifi":true,
            "$distance":2581.105
         },
         {
            "24":24,
            "accessible_wheelchair":true,
            "address":"13433 NE 20th St",
            "attire":"casual",
            "category":"Food & Beverage > Restaurants > Pizza",
            "country":"US",
            "cuisine":"Italian, Pizza, Sandwiches",
            "factual_id":"a02fcca5-1679-4282-8e23-875ade3d5ef6",
            "founded":"1995",
            "groups_goodfor":true,
            "kids_goodfor":true,
            "latitude":47.62801,
            "locality":"Bellevue",
            "longitude":-122.160385,
            "meal_deliver":true,
            "meal_dinner":true,
            "meal_lunch":true,
            "meal_takeout":true,
            "name":"A Pizza Mart",
            "parking":true,
            "parking_lot":true,
            "payment_cashonly":false,
            "postcode":"98005",
            "price":1,
            "rating":4,
            "region":"WA",
            "reservations":false,
            "seating_outdoor":true,
            "status":"1",
            "tel":"(425) 746-9100",
            "website":"http://briatorepizza.com/",
            "$distance":2663.888
         },
         {
            "24":24,
            "open_24hrs":false,
            "accessible_wheelchair":true,
            "address":"1830 130th Ave NE",
            "address_extended":"Ste 1",
            "alcohol":true,
            "alcohol_bar":true,
            "attire":"casual",
            "category":"Food & Beverage > Restaurants",
            "country":"US",
            "cuisine":"Italian, Mediterranean, Pasta",
            "factual_id":"1759ad36-1618-4a04-b64d-217b3be4653a",
            "groups_goodfor":true,
            "hours":"{\"1\":[[\"11:00\",\"21:00\"]],\"2\":[[\"11:00\",\"21:00\"]],\"3\":[[\"11:00\",\"21:30\"]],\"4\":[[\"11:00\",\"21:30\"]],\"5\":[[\"11:00\",\"21:30\"]],\"6\":[[\"17:00\",\"21:30\"]],\"7\":[[\"16:30\",\"20:30\"]]}",
            "kids_goodfor":true,
            "latitude":47.626686,
            "locality":"Bellevue",
            "longitude":-122.16706,
            "meal_cater":true,
            "meal_deliver":false,
            "meal_dinner":true,
            "meal_lunch":true,
            "meal_takeout":true,
            "name":"Angelo's Restaurant",
            "owner":"Ron Ricci",
            "parking":true,
            "parking_lot":true,
            "payment_cashonly":false,
            "postcode":"98005",
            "price":2,
            "rating":4.5,
            "region":"WA",
            "reservations":false,
            "seating_outdoor":false,
            "status":"1",
            "tel":"(425) 883-2777",
            "website":"http://angelosofbellevue.com/",
            "$distance":3172.3855
         },
         {
            "24":24,
            "open_24hrs":false,
            "accessible_wheelchair":true,
            "address":"16499 NE 74th St",
            "alcohol":true,
            "alcohol_bar":true,
            "attire":"casual",
            "category":"Food & Beverage > Restaurants",
            "country":"US",
            "cuisine":"Italian",
            "email":"spazzo@schwartzbros.com",
            "factual_id":"65ee5c18-cc73-4020-813a-66d7ee9472c9",
            "founded":"2007",
            "groups_goodfor":true,
            "hours":"{\"1\":[[\"11:30\",\"15:00\"],[\"15:00\",\"22:00\"]],\"2\":[[\"11:30\",\"15:00\"],[\"15:00\",\"22:00\"]],\"3\":[[\"11:30\",\"15:00\"],[\"15:00\",\"22:00\"]],\"4\":[[\"11:30\",\"15:00\"],[\"15:00\",\"22:00\"]],\"5\":[[\"11:30\",\"15:00\"],[\"15:00\",\"23:00\"]],\"6\":[[\"11:30\",\"15:00\"],[\"15:00\",\"23:00\"]],\"7\":[[\"15:00\",\"22:00\"]]}",
            "kids_goodfor":true,
            "latitude":47.670367,
            "locality":"Redmond",
            "longitude":-122.120197,
            "meal_breakfast":true,
            "meal_cater":true,
            "meal_deliver":false,
            "meal_dinner":true,
            "meal_lunch":true,
            "meal_takeout":true,
            "name":"Spazzo Italian Grill",
            "parking":true,
            "parking_garage":true,
            "parking_lot":true,
            "payment_cashonly":false,
            "postcode":"98052",
            "price":2,
            "rating":3.5,
            "region":"WA",
            "reservations":true,
            "room_private":true,
            "seating_outdoor":true,
            "smoking":false,
            "status":"1",
            "tel":"(425) 881-4400",
            "website":"http://www.schwartzbros.com/spazzo.cfm",
            "$distance":3437.9197
         },
         {
            "24":24,
            "address":"16499 NE 74th St",
            "category":"Food & Beverage > Restaurants > Italian",
            "country":"US",
            "cuisine":"Italian, American, Cafe",
            "factual_id":"898ff7df-5d3b-46a1-b0dd-73d1ca6a3ca8",
            "latitude":47.670378,
            "locality":"Redmond",
            "longitude":-122.120193,
            "meal_dinner":true,
            "name":"Cucina Cucina Italian Cafe",
            "postcode":"98052",
            "price":2,
            "rating":3,
            "region":"WA",
            "reservations":true,
            "status":"1",
            "tel":"(425) 558-2200",
            "website":"http://www.cucinacucina.com/",
            "$distance":3439.1782
         },
         {
            "24":24,
            "open_24hrs":false,
            "accessible_wheelchair":true,
            "address":"7545 166th Ave NE",
            "attire":"casual",
            "category":"Food & Beverage > Restaurants",
            "country":"US",
            "cuisine":"Italian, Pasta",
            "factual_id":"3d3edb60-9493-45ff-a509-77986d47112e",
            "groups_goodfor":false,
            "hours":"{\"1\":[[\"9:00\",\"22:00\"]],\"2\":[[\"9:00\",\"22:00\"]],\"3\":[[\"9:00\",\"22:00\"]],\"4\":[[\"9:00\",\"22:00\"]],\"5\":[[\"9:00\",\"22:00\"]],\"6\":[[\"9:00\",\"22:00\"]],\"7\":[[\"9:00\",\"22:00\"]]}",
            "kids_goodfor":true,
            "latitude":47.671012,
            "locality":"Redmond",
            "longitude":-122.119131088257,
            "meal_deliver":false,
            "meal_takeout":true,
            "name":"Pallino Pastaria Company",
            "parking":true,
            "parking_garage":true,
            "payment_cashonly":false,
            "postcode":"98052",
            "rating":3,
            "region":"WA",
            "reservations":false,
            "seating_outdoor":true,
            "status":"1",
            "tel":"(425) 861-6900",
            "$distance":3525.1963
         },
         {
            "24":24,
            "open_24hrs":false,
            "address":"7625 170th Ave NE",
            "address_extended":"Ste 105",
            "category":"Food & Beverage > Restaurants > Italian",
            "country":"US",
            "cuisine":"Italian",
            "factual_id":"bed822f5-d2b6-4db2-8db7-a8203a78d89b",
            "fax":"(425) 881-1981",
            "founded":"2002",
            "hours":"{\"1\":[[\"10:00\",\"20:00\"]],\"2\":[[\"10:00\",\"20:00\"]],\"3\":[[\"10:00\",\"20:00\"]],\"4\":[[\"10:00\",\"20:00\"]],\"5\":[[\"10:00\",\"20:30\"]],\"6\":[[\"10:00\",\"20:30\"]],\"7\":[[\"11:00\",\"19:30\"]]}",
            "latitude":47.670454,
            "locality":"Redmond",
            "longitude":-122.11365,
            "meal_dinner":true,
            "meal_lunch":true,
            "name":"Pasta and Co",
            "payment_cashonly":false,
            "postcode":"98052",
            "price":1,
            "region":"WA",
            "reservations":false,
            "status":"1",
            "tel":"(425) 881-1992",
            "website":"http://pastaco.com/",
            "$distance":3581.0256
         },
         {
            "24":24,
            "address":"16564 Cleveland St",
            "category":"Food & Beverage > Restaurants",
            "country":"US",
            "cuisine":"Italian",
            "factual_id":"dd41c9ca-2989-4caa-92eb-3ccb067c68c0",
            "latitude":47.672218824,
            "locality":"Redmond",
            "longitude":-122.1193632,
            "name":"A Kiss of Italy",
            "postcode":"98052",
            "region":"WA",
            "status":"1",
            "tel":"(425) 869-8815",
            "website":"http://www.akissofitaly.com/",
            "$distance":3652.3494
         },
         {
            "24":24,
            "open_24hrs":false,
            "address":"16801 Redmond Way",
            "attire":"casual",
            "category":"Food & Beverage > Restaurants > Pizza",
            "country":"US",
            "cuisine":"Pizza, Italian, American, Healthy, Pasta, Salad, Sandwiches",
            "factual_id":"5e3d3a79-d576-4897-848f-8c72febd2b3c",
            "founded":"1999",
            "groups_goodfor":true,
            "hours":"{\"1\":[[\"11:00\",\"22:00\"]],\"2\":[[\"11:00\",\"22:00\"]],\"3\":[[\"11:00\",\"22:00\"]],\"4\":[[\"11:00\",\"22:00\"]],\"5\":[[\"11:00\",\"22:30\"]],\"6\":[[\"11:00\",\"22:30\"]],\"7\":[[\"12:00\",\"22:00\"]]}",
            "kids_goodfor":false,
            "latitude":47.67202,
            "locality":"Redmond",
            "longitude":-122.11583,
            "meal_cater":true,
            "meal_deliver":true,
            "meal_takeout":true,
            "name":"Romios Pizza and Pasta",
            "options_healthy":true,
            "options_vegetarian":true,
            "parking":true,
            "parking_lot":true,
            "payment_cashonly":false,
            "postcode":"98052",
            "rating":2.5,
            "region":"WA",
            "reservations":true,
            "seating_outdoor":false,
            "status":"1",
            "tel":"(425) 702-2466",
            "website":"http://www.e-romios.com/",
            "$distance":3696.2866
         },
         {
            "24":24,
            "open_24hrs":false,
            "address":"16564 Cleveland St",
            "alcohol":true,
            "category":"Food & Beverage > Restaurants > Italian",
            "country":"US",
            "cuisine":"Italian",
            "factual_id":"80c8a6ad-2c03-4b7f-83e8-7351b27610ad",
            "founded":"1994",
            "hours":"{\"1\":[[\"11:30\",\"21:30\"]],\"2\":[[\"11:30\",\"21:30\"]],\"3\":[[\"11:30\",\"21:30\"]],\"4\":[[\"11:30\",\"21:30\"]],\"5\":[[\"11:30\",\"22:00\"]],\"6\":[[\"17:00\",\"22:00\"]],\"7\":[[\"17:00\",\"21:30\"]]}",
            "latitude":47.672852,
            "locality":"Redmond",
            "longitude":-122.120679,
            "name":"Ristrante IL Bacio",
            "parking":true,
            "parking_free":true,
            "payment_cashonly":false,
            "postcode":"98052",
            "price":2,
            "rating":5,
            "region":"WA",
            "reservations":false,
            "status":"1",
            "tel":"(425) 869-8815",
            "website":"http://www.ilbacio.com/",
            "$distance":3701.9116
         },
         {
            "24":24,
            "open_24hrs":false,
            "accessible_wheelchair":false,
            "address":"16630 Redmond Way",
            "alcohol":true,
            "alcohol_beer_wine":true,
            "attire":"casual",
            "category":"Food & Beverage > Restaurants",
            "country":"US",
            "cuisine":"Italian, Pizza, Sandwiches, Subs",
            "factual_id":"0759ac80-b13b-4e23-8e86-3f4b091552e1",
            "fax":"(425) 869-9346",
            "founded":"1993",
            "groups_goodfor":true,
            "hours":"{\"1\":[[\"11:00\",\"21:00\"]],\"2\":[[\"11:00\",\"21:00\"]],\"3\":[[\"11:00\",\"21:00\"]],\"4\":[[\"11:00\",\"21:00\"]],\"5\":[[\"11:00\",\"22:00\"]],\"6\":[[\"11:30\",\"22:00\"]],\"7\":[[\"16:00\",\"21:00\"]]}",
            "kids_goodfor":true,
            "kids_menu":true,
            "latitude":47.67314,
            "locality":"Redmond",
            "longitude":-122.11885,
            "meal_cater":true,
            "meal_deliver":false,
            "meal_dinner":true,
            "meal_lunch":true,
            "meal_takeout":true,
            "name":"Frankies Pizza and Pasta",
            "options_glutenfree":true,
            "options_vegetarian":true,
            "parking":true,
            "parking_lot":true,
            "payment_cashonly":false,
            "postcode":"98052",
            "price":2,
            "rating":4.5,
            "region":"WA",
            "reservations":false,
            "seating_outdoor":true,
            "smoking":false,
            "status":"1",
            "tel":"(425) 883-8407",
            "website":"http://www.frankiesredmond.com/",
            "$distance":3760.635
         },
         {
            "24":24,
            "accessible_wheelchair":true,
            "address":"8042 161st Ave NE",
            "alcohol":true,
            "alcohol_beer_wine":true,
            "attire":"casual",
            "category":"Food & Beverage > Restaurants > Italian",
            "country":"US",
            "cuisine":"Italian, European",
            "factual_id":"06689db4-bc2b-4c4d-a0ef-4dab1f5ac4f5",
            "founded":"1996",
            "groups_goodfor":true,
            "kids_goodfor":true,
            "latitude":47.67514,
            "locality":"Redmond",
            "longitude":-122.125565,
            "meal_cater":true,
            "meal_deliver":false,
            "meal_dinner":true,
            "meal_lunch":true,
            "meal_takeout":true,
            "name":"Tropea Ristorante Italiano",
            "options_vegetarian":true,
            "owner":"Lorenzo Scordamaglia",
            "parking":true,
            "parking_lot":true,
            "payment_cashonly":false,
            "postcode":"98052",
            "price":2,
            "rating":4.5,
            "region":"WA",
            "reservations":false,
            "seating_outdoor":true,
            "status":"1",
            "tel":"(425) 867-1082",
            "website":"http://ristorantetropea.com/",
            "$distance":3906.3582
         },
         {
            "24":24,
            "open_24hrs":false,
            "address":"13200 Old Redmond Rd",
            "address_extended":"Ste 104",
            "attire":"casual",
            "category":"Food & Beverage > Restaurants > Pizza",
            "country":"US",
            "cuisine":"Pizza, Italian, Sandwiches, American, Subs",
            "factual_id":"f6b5f198-4223-447a-88e3-6adfbba67f60",
            "founded":"2009",
            "groups_goodfor":false,
            "hours":"{\"1\":[[\"16:00\",\"22:00\"]],\"2\":[[\"16:00\",\"22:00\"]],\"3\":[[\"16:00\",\"22:00\"]],\"4\":[[\"16:00\",\"22:00\"]],\"5\":[[\"11:00\",\"22:00\"]],\"6\":[[\"11:00\",\"22:00\"]],\"7\":[[\"11:00\",\"22:00\"]]}",
            "kids_goodfor":false,
            "latitude":47.666986,
            "locality":"Redmond",
            "longitude":-122.163463,
            "meal_breakfast":true,
            "meal_cater":true,
            "meal_deliver":true,
            "meal_dinner":true,
            "meal_lunch":true,
            "meal_takeout":true,
            "name":"Boston Wood Fired Pizza",
            "options_vegetarian":true,
            "owner":"Sunny Chow",
            "payment_cashonly":false,
            "postcode":"98052",
            "price":1,
            "rating":4,
            "region":"WA",
            "reservations":false,
            "seating_outdoor":false,
            "smoking":false,
            "status":"1",
            "tel":"(425) 883-9700",
            "website":"http://www.bostonwoodfiredpizza.com/",
            "$distance":3913.5142
         }
      ],
      "included_rows":20
   }
}